[
    {
        "name": "Tyne and Wear",
        "lat": "54.978252",
        "lng": "-1.617780",
        "r": "10",
        "woeid":"30079"
    },
    {
        "name": "Manchester",
        "lat": "53.480759",
        "lng": "-2.242631",
        "r": "10",
        "woeid":"28218"
    },
    {
        "name": "Sheffield",
        "lat": "53.381130",
        "lng": "-1.470085",
        "r": "10",
        "woeid":"34503"
    },
    {
        "name": "Leeds",
        "lat": "53.800755",
        "lng": "-1.549077",
        "r": "10",
        "woeid":"26042"
    },
    {
        "name": "Glasgow",
        "lat": "55.864239",
        "lng": "-4.251806",
        "r": "10",
        "woeid":"21125"
    },
    {
        "name": "Aberdeen",
        "lat": "57.147480",
        "lng": "-2.095400",
        "r": "10",
        "woeid": "19344"
    },
    {
        "name": "Dundee",
        "lat": "56.462017",
        "lng": "-2.970721",
        "r": "10",
        "woeid": "19344"
    },
    {
        "name": "St. Andrew's",
        "lat": "56.338909",
        "lng": "-2.798930",
        "r": "10",
        "woeid": "19344"
    },
    {
        "name": "Edinburgh",
        "lat": "55.953251",
        "lng": "-3.188267",
        "r": "10",
        "woeid": "19344"
    },
    {
        "name": "Dumfries and Galloway",
        "lat": "55.083333",
        "lng": "-3.833333",
        "r": "10",
        "woeid": "21125"
    },
    {
        "name": "Cumbria",
        "lat": "54.6143136",
        "lng": "-2.9420983340597866",
        "r": "10",
        "woeid": "23424975"
    },
    {
        "name": "Scottish Borders",
        "lat": "55.583333",
        "lng": "-2.833333",
        "r": "10",
        "woeid": "19344"
    },
    {
        "name": "Northumberland",
        "lat": "55.25",
        "lng": "-2.000559",
        "r": "10",
        "woeid": "30079"
    },
    {
        "name": "County Durham",
        "lat": "54.666667",
        "lng": "-1.75",
        "r": "10",
        "woeid": "30079"
    },
    {
        "name": "Middlesborough",
        "lat": "54.5760419",
        "lng": "-1.2344047",
        "r": "10",
        "woeid": "28869"
    },
    {
        "name": "Yorkshire",
        "lat": "54.13453275",
        "lng": "-1.498628491239545",
        "r": "30",
        "woeid": "26042"
    },
    {
        "name": "Blackpool",
        "lat": "53.8182212",
        "lng": "-3.0564845",
        "r": "10",
        "woeid": "28218"
    },
    {
        "name": "Liverpool",
        "lat": "53.407154",
        "lng": "-2.991665",
        "r": "10",
        "woeid": "26734"
    },
    {
        "name": "Argyll",
        "lat": "56.4603494",
        "lng": "-5.8618419478791015",
        "r": "10",
        "woeid": "21125"
    },
    {
        "name": "Scottish Highlands",
        "lat": "56.8",
        "lng": "-5",
        "r": "10",
        "woeid": "30079"
    },
    {
        "name": "Lincoln",
        "lat": "53.2336301",
        "lng": "-0.5392172",
        "r": "10",
        "woeid": "30720"
    },
    {
        "name": "Nottingham",
        "lat": "52.9534193",
        "lng": "-1.1496461",
        "r": "10",
        "woeid": "30720"
    },
    {
        "name": "Derby",
        "lat": "52.9212617",
        "lng": "-1.4761491",
        "r": "10",
        "woeid": "18114"
    },
    {
        "name": "Stoke",
        "lat": "53.0162014",
        "lng": "-2.1812607",
        "r": "10",
        "woeid": "36240"
    },
    {
        "name": "Leicester",
        "lat": "52.6361398",
        "lng": "-1.1330789",
        "r": "10",
        "woeid": "26062"
    }
]
  